County,State,Country,Latitude,Longitude,Location,4/5/20,4/6/20,4/7/20,4/8/20,4/9/20,4/10/20,4/11/20,4/12/20,4/13/20,4/14/20,4/15/20,4/16/20,4/17/20,4/18/20,4/19/20,4/20/20,4/21/20,4/22/20,4/23/20,4/24/20,4/25/20,4/26/20,4/27/20,4/28/20,4/29/20,4/30/20,5/1/20,5/2/20,5/3/20,5/4/20,5/5/20
Adams,Indiana,US,40.7457653,-84.93671406,"Adams, Indiana, US",2,2,2,2,2,4,4,5,5,6,6,6,6,7,7,7,7,7,7,7,7,8,7,7,7,7,7,8,8,8,9
Allen,Indiana,US,41.09194313,-85.06800636,"Allen, Indiana, US",63,87,90,95,105,119,136,147,156,167,180,224,271,293,301,327,336,343,387,400,427,439,486,504,528,560,588,600,619,664,695
Bartholomew,Indiana,US,39.20744865,-85.89558181,"Bartholomew, Indiana, US",54,54,55,66,83,83,108,110,110,110,113,116,130,131,136,140,140,146,163,175,198,206,232,238,241,250,261,266,268,269,297
Benton,Indiana,US,40.60626947,-87.31093999,"Benton, Indiana, US",0,0,0,0,0,0,0,2,2,2,3,4,4,4,4,4,4,4,6,5,6,6,6,7,8,8,8,9,11,11,10
Blackford,Indiana,US,40.47388153,-85.32499702,"Blackford, Indiana, US",3,4,4,4,4,4,5,5,5,6,6,6,6,6,6,6,6,6,6,7,7,7,7,7,8,8,8,9,9,9,10
Boone,Indiana,US,40.0509304,-86.46841646,"Boone, Indiana, US",57,64,74,76,84,90,103,109,109,125,129,136,145,151,153,154,161,166,172,177,182,182,183,185,186,190,189,198,198,199,207
Brown,Indiana,US,39.19605589,-86.22868909,"Brown, Indiana, US",5,5,8,9,9,9,12,12,12,13,14,14,14,14,14,14,14,14,15,15,15,15,15,15,15,15,16,17,18,18,18
Carroll,Indiana,US,40.580783200000000,-86.56198812,"Carroll,Indiana,US",3,3,3,3,3,4,5,5,5,6,6,6,6,6,6,7,8,7,7,8,9,13,18,18,21,22,24,25,41,56,63
Cass,Indiana,US,40.76135835,-86.34830753,"Cass, Indiana, US",4,4,12,15,16,18,23,22,28,28,33,37,50,52,71,87,107,138,199,255,315,586,1025,1101,1125,1164,1214,1224,1293,1371,1406
Clark,Indiana,US,38.48015445,-85.70510334,"Clark, Indiana, US",66,71,82,86,96,104,106,112,117,132,137,143,151,160,162,177,181,188,195,207,223,227,277,283,288,293,316,329,331,334,339
Clay,Indiana,US,39.39561833,-87.11723506,"Clay, Indiana, US",4,4,7,11,12,11,11,11,12,12,13,14,14,15,18,20,19,19,19,19,19,19,19,19,19,20,20,22,22,22,22
Clinton,Indiana,US,40.30319754,-86.47277257,"Clinton, Indiana, US",4,4,5,8,10,11,11,11,11,12,13,14,16,16,18,19,20,20,25,26,30,31,32,35,36,38,45,47,56,64,65
Crawford,Indiana,US,38.28814402,-86.44518825,"Crawford, Indiana, US",5,5,9,11,11,12,12,12,12,12,12,12,12,12,12,13,13,13,14,16,16,16,16,16,18,18,17,18,18,18,19
Daviess,Indiana,US,38.70186039,-87.07185406,"Daviess, Indiana, US",2,2,4,5,8,9,9,10,10,12,21,24,27,29,34,34,38,38,38,42,43,43,45,46,47,47,47,50,51,52,52
Dearborn,Indiana,US,39.14647946,-84.97333539,"Dearborn, Indiana, US",33,38,41,47,52,59,59,60,129,60,61,61,63,65,68,68,70,72,75,77,84,84,85,90,103,104,117,119,135,137,138
Decatur,Indiana,US,39.30712658,-85.50087166,"Decatur, Indiana, US",80,90,90,99,107,118,123,127,129,153,155,160,165,166,168,168,171,178,182,191,194,194,194,195,199,200,200,201,202,202,205
DeKalb,Indiana,US,41.39804622,-84.99906934,"DeKalb, Indiana, US",4,4,4,4,5,5,5,5,60,6,6,10,11,13,13,13,13,13,14,14,15,15,15,16,18,20,20,21,22,22,22
Delaware,Indiana,US,40.22787247,-85.39732772,"Delaware, Indiana, US",37,40,40,46,49,56,63,66,69,72,77,85,91,92,110,114,116,121,126,132,144,146,147,152,156,176,182,198,200,200,209
Dubois,Indiana,US,38.36597551,-86.87924170000000,"Dubois, Indiana, US",6,7,7,9,10,10,11,13,13,13,14,14,14,14,16,16,16,16,16,17,17,17,18,18,21,23,23,24,25,25,27
Elkhart,Indiana,US,41.59761169,-85.85875695,"Elkhart, Indiana, US",35,36,43,46,56,61,71,83,89,100,105,123,130,148,152,164,179,185,196,211,238,245,247,269,281,287,293,295,311,321,342
Fayette,Indiana,US,39.63684962,-85.17797541,"Fayette, Indiana, US",16,16,18,18,19,19,20,20,20,20,20,20,21,21,22,22,22,22,22,23,25,25,25,26,28,28,28,28,29,30,30
Floyd,Indiana,US,38.32117957,-85.90385377,"Floyd, Indiana, US",50,50,74,77,88,93,105,107,108,111,116,125,130,137,142,142,142,149,152,162,163,164,164,173,174,178,182,200,203,204,212
Fountain,Indiana,US,40.12361933,-87.24217689,"Fountain, Indiana, US",2,2,2,2,2,3,3,3,3,3,3,4,4,5,6,8,8,8,8,9,9,9,9,10,10,11,12,12,13,14,14
Franklin,Indiana,US,39.4142482,-85.06062647,"Franklin, Indiana, US",53,55,60,61,64,66,67,69,69,74,75,75,87,89,89,90,91,91,92,92,94,94,94,95,96,97,97,97,97,99,99
Fulton,Indiana,US,41.0469907,-86.26252745,"Fulton, Indiana, US",2,3,3,3,3,3,3,3,3,3,3,3,4,5,6,6,6,6,7,7,10,13,23,26,26,27,30,31,33,33,34
Gibson,Indiana,US,38.30393723,-87.58054938,"Gibson, Indiana, US",4,4,4,4,4,4,4,4,4,4,4,4,4,5,5,5,5,5,6,6,6,6,6,6,6,7,7,7,7,7,7
Grant,Indiana,US,40.51587228,-85.65468702,"Grant, Indiana, US",18,20,20,22,26,32,35,36,37,40,41,45,47,55,75,78,97,101,102,112,113,114,117,119,120,129,138,143,144,146,146
Greene,Indiana,US,39.03630547,-86.96223202,"Greene, Indiana, US",10,10,11,12,12,14,14,19,25,25,28,36,37,42,42,42,44,44,44,45,46,47,47,48,55,56,90,95,96,96,97
Hamilton,Indiana,US,40.07306535,-86.05244729,"Hamilton, Indiana, US",300,335,363,392,395,431,443,478,490,499,510,520,542,563,583,598,615,624,645,670,699,704,720,729,746,755,794,810,824,845,859
Hancock,Indiana,US,39.82304555,-85.77566351,"Hancock, Indiana, US",61,72,89,99,100,109,112,118,118,121,129,127,132,135,143,151,149,151,160,171,177,178,183,204,213,218,227,229,230,231,233
Harrison,Indiana,US,38.19467379,-86.10948271,"Harrison, Indiana, US",33,33,48,48,51,50,54,55,58,58,59,61,65,85,87,101,103,105,108,111,115,118,121,125,127,129,129,135,138,138,138
Hendricks,Indiana,US,39.76719009,-86.51037283,"Hendricks, Indiana, US",177,196,225,243,256,287,301,315,330,350,360,378,407,435,471,499,511,518,565,582,611,644,643,645,658,667,701,745,764,774,785
Henry,Indiana,US,39.93029017,-85.39625719,"Henry, Indiana, US",11,13,16,19,19,20,22,23,23,22,23,24,26,29,31,31,28,29,30,31,32,33,34,36,37,39,40,43,44,48,47
Howard,Indiana,US,40.48527731,-86.11351892,"Howard, Indiana, US",27,32,37,44,42,46,46,48,50,50,60,61,61,68,68,72,71,75,76,81,83,117,152,158,169,172,176,185,191,202,211
Huntington,Indiana,US,40.82907273,-85.48822092,"Huntington, Indiana, US",4,4,6,6,6,6,6,7,6,6,6,6,6,6,6,6,6,6,6,6,6,7,9,9,9,9,9,10,11,11,11
Jackson,Indiana,US,38.90915820000000,-86.03851889,"Jackson, Indiana, US",36,37,40,46,53,57,64,70,70,70,74,77,77,84,90,89,98,97,100,101,108,114,118,125,128,138,157,163,165,166,183
Jasper,Indiana,US,41.02078733,-87.11553319,"Jasper, Indiana, US",12,15,14,14,16,15,16,17,18,18,19,19,22,21,22,25,26,24,27,34,34,28,29,40,45,46,33,33,36,36,37
Jay,Indiana,US,40.43781032,-85.00576229,"Jay, Indiana, US",3,3,3,3,4,4,4,4,7,7,7,7,8,8,9,10,9,9,10,10,11,11,12,12,14,15,16,16,16,18,18
Jefferson,Indiana,US,38.78576239,-85.43633383,"Jefferson, Indiana, US",5,6,6,7,10,10,13,12,12,16,15,15,18,18,18,20,21,21,22,22,22,22,26,26,26,26,29,30,30,30,30
Jennings,Indiana,US,38.99588883,-85.62710784,"Jennings, Indiana, US",35,37,41,42,45,46,54,56,56,58,60,63,63,63,64,64,64,64,67,68,71,72,72,72,74,75,78,81,82,82,86
Johnson,Indiana,US,39.48994426,-86.10149107,"Johnson, Indiana, US",167,195,212,230,248,270,287,317,327,329,347,358,371,393,411,426,451,456,478,511,530,533,538,548,563,579,616,668,706,718,730
Knox,Indiana,US,38.68861576,-87.4194665,"Knox, Indiana, US",7,8,9,10,10,13,13,15,15,15,16,16,16,17,18,18,18,18,18,19,20,20,20,20,20,20,20,20,20,20,20
Kosciusko,Indiana,US,41.24521668,-85.86312322,"Kosciusko, Indiana, US",12,14,14,16,16,17,17,18,18,19,19,21,22,22,22,22,22,23,24,25,27,29,29,30,33,34,36,36,36,37,38
LaGrange,Indiana,US,41.64232188,-85.42674232,"LaGrange, Indiana, US",4,6,6,6,7,9,10,12,13,13,14,15,16,15,16,17,18,18,19,19,21,22,23,24,24,25,25,27,28,30,33
Lake,Indiana,US,41.41874274,-87.38277575,"Lake, Indiana, US",335,369,418,461,525,576,676,744,796,819,876,978,1026,1095,1105,1182,1227,1292,1346,1445,1515,1533,1586,1715,1786,1846,1929,1993,2036,2098,2161
LaPorte,Indiana,US,41.54366008,-86.74072188,"LaPorte, Indiana, US",21,21,25,28,30,31,31,33,34,36,42,112,129,134,140,140,140,144,148,149,156,188,192,199,209,218,224,229,251,254,268
Lawrence,Indiana,US,38.84112637,-86.48361629,"Lawrence, Indiana, US",39,39,44,55,56,59,63,68,71,73,73,74,76,77,79,81,83,83,86,87,92,92,93,95,94,99,99,105,105,108,109
Madison,Indiana,US,40.16143691,-85.71964711,"Madison, Indiana, US",86,101,137,143,146,204,235,254,261,263,273,283,305,323,332,340,346,351,359,379,395,394,396,401,409,420,428,434,439,450,452
Marion,Indiana,US,39.78163624,-86.13826325,"Marion, Indiana, US",1760,1956,2141,2290,2415,2600,2742,2887,3012,3063,3204,3320,3518,3624,3889,4052,4176,4263,4408,4537,4727,4796,4926,5080,5295,5530,5754,5983,6176,6327,6419
Marshall,Indiana,US,41.32467367,-86.26185087,"Marshall, Indiana, US",6,8,10,11,11,12,14,19,17,17,19,20,22,22,23,24,24,26,25,25,26,27,29,28,28,29,30,30,31,31,32
Martin,Indiana,US,38.7099921,-86.80373186,"Martin, Indiana, US",1,2,1,1,2,2,2,5,5,5,5,5,5,5,5,6,6,6,6,7,7,7,7,7,7,7,7,7,7,7,7
Miami,Indiana,US,40.76940965,-86.04525048,"Miami, Indiana, US",7,7,9,12,13,14,15,16,16,17,17,22,21,21,22,22,26,27,31,38,42,65,93,96,100,104,107,109,115,119,120
Monroe,Indiana,US,39.16130004,-86.52414358,"Monroe, Indiana, US",48,48,54,60,61,70,75,83,87,91,95,102,108,113,114,114,115,118,118,118,120,120,120,122,122,123,126,130,130,131,132
Montgomery,Indiana,US,40.04034823,-86.89335024,"Montgomery, Indiana, US",14,15,16,17,19,20,21,22,22,23,25,25,25,25,25,26,26,27,29,29,30,33,35,37,40,67,88,96,100,102,106
Morgan,Indiana,US,39.47899078,-86.44573375,"Morgan, Indiana, US",65,76,79,82,82,89,94,101,103,104,105,108,111,111,116,119,124,124,125,128,133,131,132,136,140,152,156,160,163,168,171
Newton,Indiana,US,40.95610449,-87.39635768,"Newton, Indiana, US",4,4,6,6,6,7,9,26,27,29,29,29,29,31,31,31,33,38,40,40,44,46,46,46,46,46,60,61,61,62,61
Noble,Indiana,US,41.39672484,-85.41966713,"Noble, Indiana, US",11,11,11,11,13,14,14,14,15,17,25,27,29,34,36,38,40,45,47,51,51,54,56,58,68,69,71,84,83,86,122
Ohio,Indiana,US,38.955305,-84.96515993,"Ohio, Indiana, US",1,1,1,1,1,1,1,1,1,1,1,1,1,1,1,1,2,2,3,3,3,3,3,4,4,4,4,4,5,6,6
Orange,Indiana,US,38.54118920000000,-86.49523093,"Orange, Indiana, US",7,9,14,11,12,13,16,17,18,18,19,22,24,25,30,34,34,38,39,56,57,60,60,63,64,76,101,104,104,105,106
Owen,Indiana,US,39.31145587,-86.83900724,"Owen, Indiana, US",15,15,17,17,17,18,18,19,19,19,19,21,21,21,21,21,22,22,22,22,22,22,22,22,22,23,23,24,24,25,24
Parke,Indiana,US,39.77202286,-87.20375833,"Parke, Indiana, US",2,5,6,5,5,6,7,7,7,7,7,7,8,7,9,9,9,9,10,11,12,12,12,12,12,12,12,12,12,12,13
Perry,Indiana,US,38.07809328,-86.63741946,"Perry, Indiana, US",0,0,0,0,0,3,3,3,3,3,4,4,4,5,5,6,6,6,6,6,6,6,8,10,10,10,10,11,11,11,11
Pike,Indiana,US,38.40112197,-87.23574907,"Pike, Indiana, US",0,0,0,0,0,0,0,1,1,2,1,1,1,1,1,1,1,1,1,1,1,1,1,1,1,1,2,2,2,2,2
Porter,Indiana,US,41.45986947,-87.06848888,"Porter, Indiana, US",59,79,84,85,93,95,107,118,120,127,135,143,155,168,175,180,183,193,198,204,210,212,215,228,232,238,240,250,252,258,266
Posey,Indiana,US,38.02097333,-87.86480429,"Posey, Indiana, US",5,5,5,5,5,5,5,5,5,5,6,6,6,6,7,7,8,8,8,8,9,9,9,9,9,11,12,12,12,13,14
Pulaski,Indiana,US,41.04166107,-86.69890683,"Pulaski, Indiana, US",0,0,1,1,1,1,1,1,1,1,1,1,1,1,1,1,1,1,4,7,9,13,18,21,23,23,25,26,29,29,29
Putnam,Indiana,US,39.66437981,-86.84517605,"Putnam, Indiana, US",17,21,25,27,30,31,32,32,33,38,42,43,47,50,51,51,53,53,54,56,58,58,58,59,63,66,71,71,76,78,80
Randolph,Indiana,US,40.15734772,-85.01139319,"Randolph, Indiana, US",5,5,7,7,7,8,8,10,11,11,11,10,10,12,12,12,12,12,14,13,14,14,14,15,15,15,15,15,16,16,17
Ripley,Indiana,US,39.10235626,-85.26212744,"Ripley, Indiana, US",60,70,76,76,77,79,81,84,86,89,88,89,77,80,82,82,83,86,87,87,89,89,90,91,92,92,93,94,94,97,98
Rush,Indiana,US,39.62002287,-85.4655599,"Rush, Indiana, US",10,12,14,14,14,12,13,15,17,16,17,17,20,19,19,21,22,21,21,26,28,29,30,31,31,31,32,33,34,35,36
St. Joseph,Indiana,US,41.61756781,-86.29040834,"St. Joseph, Indiana, US",102,112,129,142,150,165,186,192,194,234,273,306,358,388,402,412,442,454,475,515,553,576,586,602,620,633,642,645,658,668,687
Scott,Indiana,US,38.68672078,-85.74627859,"Scott, Indiana, US",8,8,8,11,12,12,14,17,17,17,17,19,20,22,24,24,25,27,28,33,36,37,38,39,41,46,47,51,52,52,54
Shelby,Indiana,US,39.52305623,-85.79158570000000,"Shelby, Indiana, US",37,45,51,56,61,63,68,71,75,77,79,86,97,99,105,111,120,125,145,154,176,180,184,191,194,201,213,218,222,224,229
Spencer,Indiana,US,38.01519732,-87.0079644,"Spencer, Indiana, US",1,1,1,1,1,1,2,3,3,3,4,4,4,4,4,4,5,5,5,5,5,5,5,5,5,5,5,5,5,5,5
Starke,Indiana,US,41.27890281,-86.64686895,"Starke, Indiana, US",3,4,5,6,6,8,8,9,9,10,10,10,10,11,11,11,11,11,13,13,13,15,15,15,16,16,16,16,17,17,17
Steuben,Indiana,US,41.64423868,-85.00101094,"Steuben, Indiana, US",6,8,9,10,12,12,12,12,12,12,13,14,16,17,17,17,17,18,18,20,21,21,21,21,22,23,25,26,26,41,51
Sullivan,Indiana,US,39.08952258,-87.41414469,"Sullivan, Indiana, US",3,3,3,4,4,4,5,6,6,6,6,7,7,7,8,9,10,10,10,12,12,13,13,13,16,16,16,16,16,16,16
Switzerland,Indiana,US,38.82767338,-85.03022429,"Switzerland, Indiana, US",9,11,11,11,13,12,13,13,12,12,12,12,12,13,13,13,13,13,14,14,14,14,14,15,15,15,15,15,15,15,15
Tippecanoe,Indiana,US,40.38872739,-86.89413959,"Tippecanoe, Indiana, US",29,34,36,38,40,42,43,45,45,46,46,51,53,55,56,58,59,59,62,64,71,75,90,95,102,110,115,120,156,181,190
Tipton,Indiana,US,40.31123252,-86.05234925,"Tipton, Indiana, US",6,6,8,9,9,9,9,9,10,10,10,10,10,10,13,13,14,14,14,17,17,17,18,18,18,18,20,20,20,20,20
Union,Indiana,US,39.62550777,-84.92497066,"Union, Indiana, US",3,3,3,5,5,5,5,5,9,6,6,6,6,6,6,6,6,6,6,7,7,6,6,6,7,7,7,7,7,7,7
Vanderburgh,Indiana,US,38.02658833,-87.58763124,"Vanderburgh, Indiana, US",37,40,41,41,49,53,53,56,57,60,65,71,76,80,85,87,88,96,104,104,113,117,119,126,131,135,143,147,151,150,153
Vermillion,Indiana,US,39.8523352,-87.46160542,"Vermillion, Indiana, US",2,2,2,2,3,3,3,3,3,3,4,4,5,5,6,6,6,7,7,7,7,7,7,7,7,7,7,7,7,7,7
Vigo,Indiana,US,39.42944561,-87.39169027,"Vigo, Indiana, US",18,25,25,32,36,40,41,42,42,42,43,46,48,51,57,58,60,60,60,62,62,62,62,62,62,64,64,67,67,69,71
Wabash,Indiana,US,40.84704239,-85.79328272,"Wabash, Indiana, US",1,3,5,5,6,7,7,7,7,7,7,8,9,9,9,10,10,10,12,12,12,19,22,28,38,42,51,55,60,63,63
Warren,Indiana,US,40.34728141,-87.35602659,"Warren, Indiana, US",2,2,2,2,2,2,2,3,3,3,3,5,5,6,7,7,7,7,8,11,11,11,11,11,11,11,11,11,11,11,12
Warrick,Indiana,US,38.08922676,-87.2716085,"Warrick, Indiana, US",13,19,23,26,30,33,34,36,38,39,41,51,53,55,58,59,69,68,77,78,80,82,83,84,88,96,94,101,101,103,106
Washington,Indiana,US,38.60219804,-86.1049363,"Washington, Indiana, US",18,18,20,21,23,23,23,25,26,26,27,28,27,28,29,31,31,31,33,36,40,40,40,41,41,43,44,44,45,45,45
Wayne,Indiana,US,39.8633444,-85.01044989,"Wayne, Indiana, US",8,10,13,16,16,16,17,17,19,19,20,21,22,23,27,28,28,30,30,31,31,31,33,33,36,34,35,37,38,39,41
Wells,Indiana,US,40.72934187,-85.22132966,"Wells, Indiana, US",2,2,2,2,3,3,3,4,4,4,4,4,5,5,5,5,6,6,5,5,6,5,5,5,5,5,5,6,7,7,7
White,Indiana,US,40.74911165,-86.86492015,"White, Indiana, US",3,3,3,3,3,3,3,3,4,5,5,5,6,6,7,8,8,11,12,14,18,26,34,42,43,47,51,57,82,99,100
Whitley,Indiana,US,41.13863784,-85.50791236,"Whitley, Indiana, US",6,8,8,8,8,10,11,12,13,14,14,15,14,15,16,16,16,16,16,16,16,16,16,16,16,19,20,21,21,21,22
Totals,,,,,,4411,4936,5510,5943,6351,6907,7435,7928,8359,8527,8960,9542,10154,10641,11211,11688,12097,12438,13039,13681,14399,15012,15961,16588,17182,17835,18630,19295,19933,20507,21033